{
  "destinations": {
    "11": { "name": "LFSB", "latitude": 47.590000, "longitude": 7.529167, "elevation": 269.7 },
    "12": { "name": "LSGB", "latitude": 46.258333, "longitude": 6.986389, "elevation": 399.9 },
    "13": { "name": "LSGC", "latitude": 47.084167, "longitude": 6.793611, "elevation": 1026.0 },
    "14": { "name": "LSGE", "latitude": 46.755278, "longitude": 7.075833, "elevation": 698.9 },
    "15": { "name": "LSGG", "latitude": 46.238333, "longitude": 6.109444, "elevation": 430.1 },
    "16": { "name": "LSGK", "latitude": 46.486667, "longitude": 7.248611, "elevation": 1001.0 },
    "17": { "name": "LSGL", "latitude": 46.545278, "longitude": 6.616667, "elevation": 622.1 },
    "18": { "name": "LSGN", "latitude": 46.957500, "longitude": 6.864722, "elevation": 434.9 },
    "19": { "name": "LSGP", "latitude": 46.406389, "longitude": 6.258056, "elevation": 412.1 },
    "20": { "name": "LSGR", "latitude": 46.613611, "longitude": 7.677778, "elevation": 723.0 },
    "21": { "name": "LSGS", "latitude": 46.219167, "longitude": 7.326944, "elevation": 482.2 },
    "22": { "name": "LSGT", "latitude": 46.594167, "longitude": 7.094444, "elevation": 687.9 },
    "23": { "name": "LSGY", "latitude": 46.761944, "longitude": 6.613333, "elevation": 433.1 },
    "24": { "name": "LSMP", "latitude": 46.842500, "longitude": 6.913611, "elevation": 445.0 },
    "25": { "name": "LSPA", "latitude": 47.574167, "longitude": 9.047500, "elevation": 417.0 },
    "26": { "name": "LSPD", "latitude": 47.438611, "longitude": 7.491389, "elevation": 536.1 },
    "27": { "name": "LSPF", "latitude": 47.690556, "longitude": 8.526944, "elevation": 463.0 },
    "28": { "name": "LSPH", "latitude": 47.515000, "longitude": 8.771944, "elevation": 459.0 },
    "29": { "name": "LSPL", "latitude": 47.182778, "longitude": 7.741389, "elevation": 480.1 },
    "30": { "name": "LSPM", "latitude": 46.513056, "longitude": 8.689444, "elevation": 987.9 },
    "31": { "name": "LSPN", "latitude": 47.226667, "longitude": 8.078056, "elevation": 485.9 },
    "32": { "name": "LSPO", "latitude": 47.341389, "longitude": 7.884444, "elevation": 416.4 },
    "33": { "name": "LSPU", "latitude": 46.480278, "longitude": 8.263333, "elevation": 1327.1 },
    "34": { "name": "LSPV", "latitude": 47.204722, "longitude": 8.867500, "elevation": 406.9 },
    "35": { "name": "LSTA", "latitude": 46.304722, "longitude": 7.819722, "elevation": 637.0 },
    "36": { "name": "LSTB", "latitude": 46.979444, "longitude": 7.132500, "elevation": 433.1 },
    "37": { "name": "LSTO", "latitude": 46.916667, "longitude": 6.615000, "elevation": 732.1 },
    "38": { "name": "LSTR", "latitude": 46.590278, "longitude": 6.400556, "elevation": 663.9 },
    "39": { "name": "LSTZ", "latitude": 46.551667, "longitude": 7.381111, "elevation": 933.0 },
    "40": { "name": "LSZA", "latitude": 46.003611, "longitude": 8.910278, "elevation": 278.9 },
    "41": { "name": "LSZB", "latitude": 46.912222, "longitude": 7.499167, "elevation": 509.9 },
    "42": { "name": "LSZC", "latitude": 46.974444, "longitude": 8.396944, "elevation": 449.6 },
    "43": { "name": "LSZE", "latitude": 47.015000, "longitude": 9.481944, "elevation": 492.9 },
    "44": { "name": "LSZF", "latitude": 47.443333, "longitude": 8.233889, "elevation": 396.2 },
    "45": { "name": "LSZG", "latitude": 47.181389, "longitude": 7.416389, "elevation": 430.1 },
    "46": { "name": "LSZH", "latitude": 47.458056, "longitude": 8.548056, "elevation": 431.9 },
    "47": { "name": "LSZI", "latitude": 47.508889, "longitude": 7.950000, "elevation": 545.0 },
    "48": { "name": "LSZJ", "latitude": 47.183611, "longitude": 7.090833, "elevation": 684.9 },
    "49": { "name": "LSZK", "latitude": 47.376389, "longitude": 8.757500, "elevation": 535.8 },
    "50": { "name": "LSZL", "latitude": 46.160833, "longitude": 8.878611, "elevation": 198.1 },
    "51": { "name": "LSZN", "latitude": 47.238611, "longitude": 8.515556, "elevation": 587.7 },
    "52": { "name": "LSZO", "latitude": 47.190000, "longitude": 8.204722, "elevation": 654.1 },
    "53": { "name": "LSZP", "latitude": 47.089167, "longitude": 7.290000, "elevation": 438.0 },
    "54": { "name": "LSZQ", "latitude": 47.392500, "longitude": 7.028889, "elevation": 568.8 },
    "55": { "name": "LSZR", "latitude": 47.485000, "longitude": 9.561944, "elevation": 398.1 },
    "56": { "name": "LSZS", "latitude": 46.534444, "longitude": 9.883889, "elevation": 1706.9 },
    "57": { "name": "LSZT", "latitude": 47.524444, "longitude": 9.003056, "elevation": 469.1 },
    "58": { "name": "LSZU", "latitude": 47.264722, "longitude": 8.302500, "elevation": 723.0 },
    "59": { "name": "LSZV", "latitude": 47.508889, "longitude": 9.262778, "elevation": 506.0 },
    "60": { "name": "LSZW", "latitude": 46.756389, "longitude": 7.600556, "elevation": 559.9 },
    "61": { "name": "LSZX", "latitude": 47.171667, "longitude": 9.039444, "elevation": 416.1 }
  }
}
